City_ID,City,Lat,Lng,Max Temp,Humidity,Cloudiness,Wind Speed,Country,Date
0,adamstown,-25.066,-130.1015,21.6,77,98,5.44,PN,23-07-18
1,thompson,55.7435,-97.8558,21.09,49,40,1.54,CA,23-07-18
2,acarau,-2.8856,-40.12,29.22,62,6,8.21,BR,23-07-18
3,turpan,42.9333,89.1667,36.13,16,14,1.93,CN,23-07-18
4,ca mau,9.1769,105.15,25.78,88,100,4.12,VN,23-07-18
5,kangding,30.0513,101.9603,12.91,94,58,1.36,CN,23-07-18
6,port-aux-francais,-49.35,70.2167,4.12,91,100,16.42,TF,23-07-18
7,hawaiian paradise park,19.5933,-154.9731,25.18,88,100,4.12,US,23-07-18
8,iqaluit,63.7506,-68.5145,7.85,93,100,2.06,CA,23-07-18
9,blackmans bay,-43.0167,147.3167,5.38,71,35,5.13,AU,23-07-18
10,anadyr,64.75,177.4833,16.28,82,40,5.0,RU,23-07-18
11,puerto baquerizo moreno,-0.9,-89.6,27.55,78,75,5.14,EC,23-07-18
12,lockport,41.5895,-88.0578,25.89,53,40,2.06,US,23-07-18
13,hermanus,-34.4187,19.2345,12.67,75,48,9.83,ZA,23-07-18
14,saurimo,-9.6608,20.3916,20.09,31,5,2.03,AO,23-07-18
15,gadzhiyevo,69.2551,33.3362,16.36,73,100,2.08,RU,23-07-18
16,tarrafal de sao nicolau,16.5667,-24.3667,25.15,74,49,6.49,CV,23-07-18
17,edinburgh of the seven seas,-37.0676,-12.3116,15.09,95,100,10.92,SH,23-07-18
18,isafjordur,66.0755,-23.124,11.02,76,20,3.09,IS,23-07-18
19,vilyuchinsk,52.9306,158.4028,12.15,88,23,3.2,RU,23-07-18
20,waitangi,-43.9535,-176.5597,11.57,84,37,3.58,NZ,23-07-18
21,kodiak,57.79,-152.4072,13.73,88,100,2.57,US,23-07-18
22,bethel,41.3712,-73.414,24.54,85,40,3.09,US,23-07-18
23,ivins,37.1686,-113.6794,39.67,20,98,0.89,US,23-07-18
24,puerto natales,-51.7236,-72.4875,1.25,78,100,0.33,CL,23-07-18
25,kameshkovo,56.3481,41.0047,19.12,89,100,3.2,RU,23-07-18
26,tura,25.5198,90.2201,24.53,97,100,1.75,IN,23-07-18
27,ta`u,-14.2336,-169.5144,26.32,80,97,4.59,AS,23-07-18
28,ardestan,33.3761,52.3694,31.99,22,3,2.53,IR,23-07-18
29,vila franca do campo,37.7167,-25.4333,21.23,72,99,1.51,PT,23-07-18
30,el calafate,-50.3408,-72.2768,-1.86,64,6,0.83,AR,23-07-18
31,yeed,4.55,43.0333,27.17,50,17,8.9,SO,23-07-18
32,troitsko-pechorsk,62.7084,56.1964,17.65,60,23,1.28,RU,23-07-18
33,egilsstadir,65.2653,-14.3948,9.95,66,75,6.17,IS,23-07-18
34,bilibino,68.0546,166.4372,17.36,70,0,0.64,RU,23-07-18
35,tazovsky,67.4667,78.7,14.8,69,98,6.08,RU,23-07-18
36,stanley,54.868,-1.6985,12.99,94,75,1.54,GB,23-07-18
37,midvagur,62.0511,-7.1939,9.46,87,100,7.72,FO,23-07-18
38,pacific grove,36.6177,-121.9166,15.96,83,40,3.6,US,23-07-18
39,vol'sk,52.0333,47.3833,20.64,69,92,3.67,RU,23-07-18
40,horsham,51.064,-0.3272,19.3,60,0,3.6,GB,23-07-18
41,mount isa,-20.7333,139.5,11.87,66,40,2.06,AU,23-07-18
42,villa gesell,-37.2639,-56.973,8.36,55,6,1.42,AR,23-07-18
43,ushuaia,-54.8,-68.3,5.81,52,20,0.51,AR,23-07-18
44,trinidad,-14.8333,-64.9,25.99,53,75,4.12,BO,23-07-18
45,vorgashor,67.5833,63.95,15.9,88,93,2.45,RU,23-07-18
46,kenai,60.5544,-151.2583,15.04,83,0,3.09,US,23-07-18
47,sao jose da coroa grande,-8.8978,-35.1478,25.93,78,0,4.43,BR,23-07-18
48,sirte,31.2089,16.5887,27.56,77,0,3.87,LY,23-07-18
49,al jawf,29.5,38.75,32.29,11,0,3.88,SA,23-07-18
50,papatowai,-46.5619,169.4708,9.01,69,100,4.2,NZ,23-07-18
51,tolanaro,-25.0319,46.9987,21.04,94,75,5.14,MG,23-07-18
52,usogorsk,63.4106,48.6872,17.79,73,30,0.59,RU,23-07-18
53,kingston,17.997,-76.7936,29.58,77,100,1.79,JM,23-07-18
54,margaret river,-33.95,115.0667,11.94,70,100,11.8,AU,23-07-18
55,tazacorte,28.629,-17.9293,23.97,81,75,5.14,ES,23-07-18
56,mpongwe,-13.5091,28.155,15.48,40,5,3.4,ZM,23-07-18
57,mhamid,29.82,-5.72,39.91,6,9,5.83,MA,23-07-18
58,envira,-7.3,-70.2167,32.42,46,92,1.14,BR,23-07-18
59,khrenovoye,51.12,40.2889,18.49,95,100,3.19,RU,23-07-18
60,west island,-12.1568,96.8225,24.99,83,40,7.72,CC,23-07-18
61,atafu village,-8.5421,-172.5159,27.65,79,100,4.38,TK,23-07-18
62,malango,-2.9627,119.9001,19.16,95,100,0.66,ID,23-07-18
63,jalai nur,49.45,117.7,17.06,89,1,5.42,CN,23-07-18
64,portland,45.5234,-122.6762,24.56,52,0,4.12,US,23-07-18
65,sur,22.5667,59.5289,34.44,48,100,3.47,OM,23-07-18
66,punta arenas,-53.15,-70.9167,3.61,77,100,3.28,CL,23-07-18
67,yellowknife,62.456,-114.3525,23.29,56,100,3.09,CA,23-07-18
68,port lincoln,-34.7333,135.8667,10.6,78,100,6.7,AU,23-07-18
69,carnarvon,-24.8667,113.6333,19.86,65,59,6.67,AU,23-07-18
70,invercargill,-46.4,168.35,9.92,69,100,5.34,NZ,23-07-18
71,siem reap,13.5,104.0,25.86,82,100,2.45,KH,23-07-18
72,lionel town,17.8101,-77.2406,31.44,60,97,7.33,JM,23-07-18
73,sao joao dos patos,-6.495,-43.7022,34.54,24,5,3.43,BR,23-07-18
74,olonkinbyen,70.9221,-8.7187,4.39,95,80,7.94,SJ,23-07-18
75,nizhniy ingash,56.2,96.53,12.01,75,60,1.53,RU,23-07-18
76,inhambane,-23.865,35.3833,16.99,94,0,0.0,MZ,23-07-18
77,coruripe,-10.1256,-36.1756,25.26,80,42,4.57,BR,23-07-18
78,avarua,-21.2078,-159.775,21.03,83,75,3.09,CK,23-07-18
79,la ronge,55.1001,-105.2842,21.14,49,75,7.2,CA,23-07-18
80,kano,12.0001,8.5167,28.94,65,20,3.6,NG,23-07-18
81,callao,-12.0667,-77.15,23.16,60,20,5.14,PE,23-07-18
82,grytviken,-54.2811,-36.5092,-5.94,77,13,4.68,GS,23-07-18
83,sitka,57.0531,-135.33,16.94,67,75,3.6,US,23-07-18
84,albany,42.6001,-73.9662,27.01,76,64,1.15,US,23-07-18
85,qingdao,36.0986,120.3719,23.78,88,0,1.0,CN,23-07-18
86,jamestown,42.097,-79.2353,24.73,55,40,5.14,US,23-07-18
87,greymouth,-42.4667,171.2,8.62,92,100,2.12,NZ,23-07-18
88,udachny,66.4167,112.4,13.27,74,67,5.85,RU,23-07-18
89,talnakh,69.4865,88.3972,12.73,83,100,7.15,RU,23-07-18
90,cooper's town,26.8667,-77.5167,29.48,70,100,3.49,BS,23-07-18
91,saipan,15.1355,145.701,27.03,100,40,2.57,MP,23-07-18
92,kirakira,-10.4544,161.9205,26.17,86,100,1.86,SB,23-07-18
93,naze,28.3667,129.4833,26.51,84,60,4.67,JP,23-07-18
94,bamboo flat,11.7,92.7167,29.05,79,75,6.17,IN,23-07-18
95,porto seguro,-16.4497,-39.0647,26.29,69,20,4.63,BR,23-07-18
96,fale old settlement,-9.3852,-171.2468,27.92,77,100,4.66,TK,23-07-18
97,alem paraiba,-21.8878,-42.7044,27.35,61,82,2.37,BR,23-07-18
98,macusani,-14.0833,-70.4333,10.22,47,39,4.34,PE,23-07-18
99,calama,-22.4667,-68.9333,23.27,4,0,5.66,CL,23-07-18
100,okahao,-17.885,15.0667,16.3,22,0,3.35,NA,23-07-18
101,enewetak,11.3474,162.3373,28.31,79,11,6.0,MH,23-07-18
102,al 'aziziyah,32.9058,45.0616,36.91,9,0,4.27,IQ,23-07-18
103,jiayuguan,39.8167,98.3,27.47,19,100,6.0,CN,23-07-18
104,tiksi,71.6872,128.8694,5.81,68,0,6.63,RU,23-07-18
105,oltinko'l,40.8011,72.1634,31.11,16,1,2.02,UZ,23-07-18
106,mount pearl,47.5166,-52.7813,28.58,76,75,10.29,CA,23-07-18
107,ust-nera,64.5667,143.2,17.78,45,100,2.07,RU,23-07-18
108,haiku-pauwela,20.9219,-156.3051,25.57,64,20,7.72,US,23-07-18
109,georgetown,5.4112,100.3354,27.97,89,20,3.09,MY,23-07-18
110,cabo san lucas,22.8909,-109.9124,35.2,43,20,4.12,MX,23-07-18
111,college,64.8569,-147.8028,18.7,76,75,2.57,US,23-07-18
112,nemuro,43.3236,145.575,13.16,95,100,1.49,JP,23-07-18
113,nova vicosa,-17.8919,-39.3719,25.5,67,6,5.21,BR,23-07-18
114,inongo,-1.95,18.2667,24.82,49,14,1.4,CD,23-07-18
115,queenstown,-31.8976,26.8753,16.18,27,0,7.15,ZA,23-07-18
116,okhotsk,59.3833,143.3,15.72,66,26,1.81,RU,23-07-18
117,ilulissat,69.2167,-51.1,9.01,87,40,1.54,GL,23-07-18
118,san patricio,28.017,-97.5169,35.58,32,0,6.66,US,23-07-18
119,penafiel,41.2084,-8.2829,22.41,58,5,2.47,PT,23-07-18
120,ashchysay,43.5542,68.8889,22.82,40,33,2.98,KZ,23-07-18
121,laojunmiao,39.8333,97.7333,22.26,30,99,5.33,CN,23-07-18
122,kone,-21.0595,164.8658,19.78,87,100,2.15,NC,23-07-18
123,kapa'a,22.0752,-159.319,26.79,70,20,8.75,US,23-07-18
124,howrah,22.5892,88.3103,28.0,94,40,2.57,IN,23-07-18
125,la paz,-16.5,-68.15,16.99,20,20,5.66,BO,23-07-18
126,malvan,16.0667,73.4667,25.84,86,100,7.23,IN,23-07-18
127,ocean city,39.2776,-74.5746,27.82,80,28,4.44,US,23-07-18
128,keflavik,64.0049,-22.5624,12.24,71,0,8.75,IS,23-07-18
129,longyearbyen,78.2186,15.6401,9.91,57,75,4.63,SJ,23-07-18
130,colonia,50.9333,6.95,23.48,46,0,1.54,DE,23-07-18
131,franceville,-1.6333,13.5836,28.43,50,90,1.59,GA,23-07-18
132,bonthe,7.5264,-12.505,25.09,89,100,4.02,SL,23-07-18
133,susuman,62.7833,148.1667,14.72,65,99,0.84,RU,23-07-18
134,mariental,-24.6333,17.9667,17.98,17,0,3.75,NA,23-07-18
135,ghadamis,30.1337,9.5007,36.19,11,0,5.08,LY,23-07-18
136,nirmal,19.1,78.35,23.13,93,100,8.44,IN,23-07-18
137,huarmey,-10.0681,-78.1522,23.65,65,8,5.02,PE,23-07-18
138,puerto ayora,-0.7393,-90.3518,26.97,87,76,3.58,EC,23-07-18
139,la passe,45.5549,-0.8967,20.08,64,0,6.59,FR,23-07-18
140,weno,7.4515,151.8468,24.97,94,100,1.54,FM,23-07-18
141,lihue,21.9789,-159.3672,27.7,67,20,8.75,US,23-07-18
142,gobabis,-22.45,18.9667,12.45,26,0,3.88,NA,23-07-18
143,quibdo,5.6947,-76.6611,32.19,70,40,2.06,CO,23-07-18
144,zaozersk,69.4005,32.4476,16.56,76,100,2.24,RU,23-07-18
145,antofagasta,-23.65,-70.4,17.6,62,4,3.51,CL,23-07-18
146,maragogi,-9.0122,-35.2225,25.65,79,0,4.43,BR,23-07-18
147,ulsteinvik,62.3432,5.8487,13.38,77,100,8.05,NO,23-07-18
148,codrington,-38.2667,141.9667,4.25,88,44,2.41,AU,23-07-18
149,lebu,-37.6167,-73.65,12.61,54,100,5.68,CL,23-07-18
150,puerto deseado,-47.7503,-65.8938,5.67,62,3,7.31,AR,23-07-18
151,sao felix do xingu,-6.6447,-51.995,36.15,20,7,2.39,BR,23-07-18
152,port mathurin,-19.6833,63.4167,23.5,82,100,11.34,MU,23-07-18
153,namibe,-15.1961,12.1522,20.0,70,0,1.09,AO,23-07-18
154,inverell,-29.7833,151.1167,6.81,90,0,2.11,AU,23-07-18
155,horta,38.5333,-28.6333,22.23,75,20,2.24,PT,23-07-18
156,bredasdorp,-34.5322,20.0403,11.22,74,51,8.57,ZA,23-07-18
157,ribeira grande,38.5167,-28.7,23.22,73,20,2.24,PT,23-07-18
158,anna regina,7.2644,-58.5077,29.22,64,4,3.86,GY,23-07-18
159,severo-yeniseyskiy,60.3725,93.0408,10.72,70,100,1.02,RU,23-07-18
160,taulaga,-11.0553,-171.0883,27.66,76,100,3.89,AS,23-07-18
161,lazaro cardenas,17.9583,-102.2,32.57,56,100,5.05,MX,23-07-18
162,metropolis,37.1512,-88.732,22.1,88,100,2.06,US,23-07-18
163,novyy urengoy,66.0833,76.6333,16.82,63,6,4.45,RU,23-07-18
164,port elizabeth,-33.918,25.5701,15.16,82,40,9.26,ZA,23-07-18
165,bolu,40.6667,31.5833,15.79,81,0,0.67,TR,23-07-18
166,qom,34.6401,50.8764,27.25,40,0,4.76,IR,23-07-18
167,ancud,-41.8697,-73.8203,6.77,89,100,6.9,CL,23-07-18
168,norilsk,69.3535,88.2027,12.84,83,100,7.67,RU,23-07-18
169,waddan,29.1614,16.139,32.43,30,0,9.22,LY,23-07-18
170,papao,-17.75,-149.55,27.82,74,78,9.29,PF,23-07-18
171,basti,26.8,82.7167,28.83,71,100,3.55,IN,23-07-18
172,hobyo,5.3505,48.5268,25.1,84,44,11.92,SO,23-07-18
173,napili-honokowai,20.9708,-156.6705,27.61,72,27,8.24,US,23-07-18
174,kushiro,42.975,144.3747,14.73,97,100,1.27,JP,23-07-18
175,dunedin,-45.8742,170.5036,7.29,79,100,2.56,NZ,23-07-18
176,celestun,20.8667,-90.4,32.09,62,5,6.33,MX,23-07-18
177,donggongon,5.907,116.1015,24.96,94,40,6.69,MY,23-07-18
178,ardabil,38.2498,48.2933,13.75,88,75,6.17,IR,23-07-18
179,scarborough,54.2797,-0.4044,13.91,88,100,2.35,GB,23-07-18
180,wotho,10.1657,166.0102,28.46,77,19,6.1,MH,23-07-18
181,labasa,-16.4167,179.3833,22.6,87,100,4.88,FJ,23-07-18
182,linxia chengguanzhen,35.6003,103.2064,15.03,69,0,1.66,CN,23-07-18
183,minas de marcona,-15.2119,-75.1103,17.95,57,3,5.19,PE,23-07-18
184,bandundu,-3.3167,17.3667,29.52,25,6,0.98,CD,23-07-18
185,porto novo,6.4965,2.6036,26.9,87,87,4.02,BJ,23-07-18
186,barcelos,41.5388,-8.6151,22.67,70,4,3.18,PT,23-07-18
187,kaiapoi,-43.3783,172.6401,0.19,100,0,1.03,NZ,23-07-18
188,holualoa,19.6228,-155.9522,25.43,70,40,2.68,US,23-07-18
189,fayetteville,35.0527,-78.8784,34.42,45,0,0.89,US,23-07-18
190,penukonda,14.0833,77.5833,23.9,69,100,10.19,IN,23-07-18
191,alice springs,-23.7,133.8833,4.75,81,0,2.57,AU,23-07-18
192,san luis de la loma,17.2706,-100.8939,32.45,57,45,3.8,MX,23-07-18
193,antalaha,-14.9003,50.2788,20.84,89,67,3.6,MG,23-07-18
194,klaksvik,62.2266,-6.589,9.51,84,100,12.56,FO,23-07-18
195,nhamunda,-2.1861,-56.7131,35.39,35,42,1.92,BR,23-07-18
196,tralee,52.2704,-9.7026,15.32,89,67,4.33,IE,23-07-18
197,chonchi,-42.6128,-73.8092,7.29,86,100,3.05,CL,23-07-18
198,byron bay,-28.65,153.6167,12.06,91,17,4.19,AU,23-07-18
199,yuzhno-kurilsk,44.0306,145.8556,13.16,94,99,0.54,RU,23-07-18
200,birjand,32.8663,59.2211,26.26,25,0,3.09,IR,23-07-18
201,kas,36.2018,29.6377,29.59,37,0,2.77,TR,23-07-18
202,kuybyshevo,47.8123,38.9073,21.87,57,100,2.52,RU,23-07-18
203,arona,28.0996,-16.681,21.36,70,20,8.23,ES,23-07-18
204,guozhen,34.3659,107.359,22.71,67,46,0.98,CN,23-07-18
205,klyuchi,52.2667,79.1667,19.48,49,100,3.23,RU,23-07-18
206,fuling,29.7022,107.3919,24.71,82,100,0.98,CN,23-07-18
207,oistins,13.0667,-59.5333,28.16,76,74,6.95,BB,23-07-18
208,smara,26.7384,-11.6719,35.87,26,11,7.91,EH,23-07-18
209,itoman,26.1247,127.6694,28.01,83,20,4.12,JP,23-07-18
210,satipo,-11.2522,-74.6386,27.65,64,19,1.43,PE,23-07-18
211,nangwa,-4.4667,35.45,13.55,55,1,2.73,TZ,23-07-18
212,kidal,18.4411,1.4078,37.78,18,36,4.39,ML,23-07-18
213,carutapera,-1.195,-46.02,28.73,70,48,4.94,BR,23-07-18
214,santa rosalia,27.3167,-112.2833,34.35,45,13,2.95,MX,23-07-18
215,oume,35.7839,139.2431,25.22,82,0,2.06,JP,23-07-18
216,nakamura,32.9833,132.9333,25.21,95,98,2.02,JP,23-07-18
217,guercif,34.2257,-3.3536,36.9,24,0,7.57,MA,23-07-18
218,wailua homesteads,22.0669,-159.378,26.12,72,20,8.75,US,23-07-18
219,kilindoni,-7.9139,39.6668,25.14,79,11,7.27,TZ,23-07-18
220,jayapura,-2.5333,140.7,24.66,92,91,2.21,ID,23-07-18
221,petropavlovsk-kamchatsky,53.0452,158.6483,11.33,100,0,1.0,RU,23-07-18
222,kyren,51.6828,102.1408,12.9,93,82,0.12,RU,23-07-18
223,morehead city,34.7229,-76.726,31.2,67,0,4.12,US,23-07-18
224,hamilton,39.1834,-84.5333,29.51,70,40,3.6,US,23-07-18
225,hadibu,12.65,54.0333,25.49,77,15,9.73,YE,23-07-18
226,kapuskasing,49.4169,-82.4331,18.0,72,75,5.66,CA,23-07-18
227,xai-xai,-25.0519,33.6442,17.46,74,0,3.11,MZ,23-07-18
228,bairnsdale,-37.8333,147.6167,7.81,80,22,4.07,AU,23-07-18
229,revelstoke,50.9832,-118.2023,22.01,56,20,1.03,CA,23-07-18
230,san bernardo del viento,9.3533,-75.9524,29.4,75,97,2.49,CO,23-07-18
231,pitomaca,45.9506,17.2294,25.49,65,99,2.7,HR,23-07-18
232,margate,51.3813,1.3862,20.13,62,52,1.79,GB,23-07-18
233,kamloops,50.6665,-120.3192,23.65,47,20,1.54,CA,23-07-18
234,koungou,-12.7336,45.2042,22.84,88,0,1.54,YT,23-07-18
235,moree,-29.4667,149.85,9.94,84,5,3.47,AU,23-07-18
236,artemovskiy,57.3555,61.8686,15.48,100,100,1.12,RU,23-07-18
237,port saint john's,-31.6229,29.5448,20.71,47,0,2.33,ZA,23-07-18
238,vandalia,39.8906,-84.1988,27.1,69,75,3.6,US,23-07-18
239,besisahar,28.2313,84.3761,24.89,78,100,1.42,NP,23-07-18
240,richards bay,-28.783,32.0377,19.83,42,0,3.84,ZA,23-07-18
241,santo antonio,-6.3106,-35.4789,27.18,64,79,7.06,BR,23-07-18
242,turgen,43.4006,77.5933,23.07,35,2,3.95,KZ,23-07-18
243,sao geraldo do araguaia,-6.4006,-48.555,36.92,20,7,1.84,BR,23-07-18
244,maracacume,-2.0428,-45.9592,27.4,69,100,1.53,BR,23-07-18
245,marvejols,44.5538,3.2914,24.54,66,21,1.6,FR,23-07-18
246,pyay,18.8167,95.2167,25.9,78,89,2.04,MM,23-07-18
247,bardai,11.65,7.2333,28.69,53,100,1.74,NG,23-07-18
248,nchelenge,-9.3451,28.734,20.18,55,3,1.35,ZM,23-07-18
249,bodo,67.28,14.405,13.19,91,75,1.79,NO,23-07-18
250,yuxia,34.0615,108.6291,25.34,67,9,2.9,CN,23-07-18
251,newman,37.3138,-121.0208,35.86,9,2,2.69,US,23-07-18
252,baiti,13.745,-14.7482,29.7,70,100,2.44,SN,23-07-18
253,geraldton,-28.7667,114.6,17.23,82,75,10.29,AU,23-07-18
254,tamanrasset,22.785,5.5228,33.95,11,0,4.12,DZ,23-07-18
255,steinbach,50.1667,8.5667,24.4,38,0,2.57,DE,23-07-18
256,pingnan,23.5543,110.3976,24.38,97,96,1.98,CN,23-07-18
257,itaituba,-4.2761,-55.9836,35.09,52,20,2.57,BR,23-07-18
258,beyneu,45.3167,55.2,24.26,44,0,5.23,KZ,23-07-18
259,gamay,12.3854,125.2979,25.01,91,100,2.26,PH,23-07-18
260,ust'-ilimsk,58.0006,102.6619,11.55,71,1,0.62,RU,23-07-18
261,macapa,0.0389,-51.0664,31.99,62,20,5.14,BR,23-07-18
262,badger,64.8,-147.5333,18.68,75,75,2.57,US,23-07-18
263,cadale,2.7603,46.3222,25.15,85,25,9.29,SO,23-07-18
264,whitehorse,60.7161,-135.0538,17.43,59,100,2.06,CA,23-07-18
265,taro,-8.3862,115.28,22.0,93,74,1.32,ID,23-07-18
266,general roca,-39.0333,-67.5833,8.6,51,100,1.56,AR,23-07-18
267,ishqoshim,36.7248,71.6133,19.86,38,5,2.71,TJ,23-07-18
268,timra,62.487,17.3257,17.82,48,28,3.09,SE,23-07-18
269,port alfred,-33.5906,26.891,15.1,91,75,0.89,ZA,23-07-18
270,as sulayyil,20.4607,45.5779,36.14,8,8,1.6,SA,23-07-18
271,mar del plata,-38.0023,-57.5575,9.97,67,20,4.12,AR,23-07-18
272,kiruna,67.8557,20.2251,12.51,71,75,7.2,SE,23-07-18
273,ixtapa,20.7,-105.2,31.57,58,75,1.79,MX,23-07-18
274,aasiaat,68.7098,-52.8699,4.38,95,97,3.1,GL,23-07-18
275,essaouira,31.5125,-9.77,22.67,82,10,5.67,MA,23-07-18
276,kalmunai,7.4167,81.8167,27.02,67,86,2.57,LK,23-07-18
277,camocim,-2.9022,-40.8411,30.33,57,1,7.32,BR,23-07-18
278,fortuna,40.5982,-124.1573,18.24,77,0,6.17,US,23-07-18
279,timbuktu,16.7735,-3.0074,38.74,23,28,4.13,ML,23-07-18
280,road town,18.4167,-64.6167,31.02,66,20,4.63,VG,23-07-18
281,ola,59.5833,151.2833,15.33,78,11,1.59,RU,23-07-18
282,east london,-33.0153,27.9116,17.97,82,1,5.31,ZA,23-07-18
283,lompoc,34.6391,-120.4579,23.79,69,40,3.6,US,23-07-18
284,narra,9.3167,118.4,25.83,85,100,2.71,PH,23-07-18
285,kendraparha,20.5,86.4167,27.63,85,27,2.69,IN,23-07-18
286,lorengau,-2.0226,147.2712,26.5,81,79,2.44,PG,23-07-18
287,buka,40.8108,69.1986,28.38,32,0,3.53,UZ,23-07-18
288,koksan,38.7819,126.6664,19.99,97,6,1.47,KP,23-07-18
289,al muwayh,22.4333,41.7583,35.62,11,100,5.24,SA,23-07-18
290,sola,-13.8833,167.55,25.54,82,100,10.86,VU,23-07-18
291,mudgee,-32.5943,149.5871,0.44,94,0,1.67,AU,23-07-18
292,mil'kovo,55.6078,37.7956,18.29,94,74,3.56,RU,23-07-18
293,arraial do cabo,-22.9661,-42.0278,21.92,88,75,3.6,BR,23-07-18
294,cam ranh,11.9214,109.1591,28.98,65,20,1.54,VN,23-07-18
295,livingston,55.9029,-3.5226,15.13,72,20,1.03,GB,23-07-18
296,port augusta,-32.5,137.7667,7.62,87,11,2.17,AU,23-07-18
297,newton abbot,50.5286,-3.6119,16.71,90,83,6.24,GB,23-07-18
298,florence,43.7667,11.25,29.52,50,0,0.45,IT,23-07-18
299,calvinia,-31.4707,19.776,9.81,83,99,6.57,ZA,23-07-18
300,uturoa,-16.7333,-151.4333,26.17,76,84,7.84,PF,23-07-18
301,moura,38.1401,-7.4486,29.06,13,53,2.6,PT,23-07-18
302,ath thawrah,35.8469,38.5443,32.82,12,0,4.78,SY,23-07-18
303,dakhla,23.6848,-15.958,24.01,73,3,11.83,EH,23-07-18
304,kruisfontein,-34.0033,24.7314,15.49,77,100,11.49,ZA,23-07-18
305,chios,38.3678,26.1358,28.92,39,0,8.23,GR,23-07-18
306,la rioja,42.25,-2.5,22.88,63,100,3.24,ES,23-07-18
307,eforie sud,44.0229,28.6494,25.45,61,7,5.48,RO,23-07-18
308,i-n-salah,27.1935,2.4607,38.58,7,0,4.56,DZ,23-07-18
309,chui,-33.6971,-53.4616,9.81,69,100,3.58,UY,23-07-18
310,mugia,43.1041,-9.2179,22.17,78,0,7.12,ES,23-07-18
311,mhasvad,17.6333,74.7833,21.93,88,100,8.95,IN,23-07-18
312,remire-montjoly,4.9167,-52.2667,30.02,66,20,6.69,GF,23-07-18
313,teknaf,20.8624,92.3058,26.56,88,87,3.69,BD,23-07-18
314,ebaye,8.7748,167.7392,28.01,83,0,3.6,MH,23-07-18
315,havre,49.5833,0.3333,20.31,60,0,3.09,FR,23-07-18
316,pontes e lacerda,-15.2261,-59.3353,32.54,30,86,2.11,BR,23-07-18
317,crane,31.3974,-102.3501,39.37,13,0,8.49,US,23-07-18
318,dwarka,22.2394,68.9678,28.32,81,100,8.11,IN,23-07-18
319,shahr-e babak,30.1165,55.1186,30.07,11,53,5.53,IR,23-07-18
320,nouadhibou,20.931,-17.0347,23.99,73,6,6.69,MR,23-07-18
321,umba,66.6871,34.3429,13.55,87,100,1.84,RU,23-07-18
322,afaahiti,-17.75,-149.2833,26.93,78,30,8.99,PF,23-07-18
323,ryotsu-minato,38.0833,138.4333,23.38,91,100,2.96,JP,23-07-18
324,fort bragg,35.139,-79.006,34.08,46,0,0.89,US,23-07-18
325,belleville,44.1788,-77.3705,26.35,54,75,5.66,CA,23-07-18
326,kuraymah,18.55,31.85,37.16,10,99,4.5,SD,23-07-18
327,iskateley,67.6803,53.1512,16.94,90,98,1.0,RU,23-07-18
328,dholka,22.7167,72.4667,27.21,71,100,5.25,IN,23-07-18
329,cozumel,20.5083,-86.9458,33.3,78,40,5.66,MX,23-07-18
330,cavalaire-sur-mer,43.174,6.5272,27.7,72,0,3.56,FR,23-07-18
331,walvis bay,-22.9575,14.5053,19.11,43,0,5.93,NA,23-07-18
332,happy valley-goose bay,53.3168,-60.3315,31.17,35,20,9.77,CA,23-07-18
333,meridian,43.6121,-116.3915,29.04,28,0,3.6,US,23-07-18
334,vorkuta,67.5,64.0,16.36,87,97,2.97,RU,23-07-18
335,fortaleza,-3.7227,-38.5247,31.07,51,20,7.72,BR,23-07-18
336,saint-philippe,-21.3585,55.7679,21.77,78,37,5.83,RE,23-07-18
337,nuuk,64.1835,-51.7216,12.34,94,100,3.09,GL,23-07-18
338,dudinka,69.4058,86.1778,12.69,88,100,7.82,RU,23-07-18
339,san antonio de pale,-1.4014,5.6325,23.49,86,99,5.48,GQ,23-07-18
340,antsiranana,-12.2787,49.2917,23.13,70,5,7.23,MG,23-07-18
341,leoben,47.3461,15.1257,15.54,95,100,2.06,AT,23-07-18
342,ust-tsilma,65.441,52.1498,18.91,64,100,1.42,RU,23-07-18
343,hadgaon,19.5,77.6667,23.06,97,100,6.04,IN,23-07-18
344,kizel,59.0471,57.6477,17.91,96,100,0.89,RU,23-07-18
345,colares,38.7992,-9.4469,22.61,67,20,8.23,PT,23-07-18
346,gebeit,21.0667,36.3167,33.71,15,6,2.27,SD,23-07-18
347,cartagena del chaira,1.3349,-74.8429,28.76,67,35,1.69,CO,23-07-18
348,barbastro,42.0356,0.1269,35.3,20,95,2.51,ES,23-07-18
349,primero de mayo,-32.2552,-58.4228,12.12,48,27,2.43,AR,23-07-18
350,bar,49.0772,27.6826,17.25,77,0,3.18,UA,23-07-18
351,chiredzi,-21.05,31.6667,16.34,46,0,1.81,ZW,23-07-18
352,columbia falls,48.3725,-114.1815,25.24,27,0,3.77,US,23-07-18
353,altay,47.8667,88.1167,19.47,41,0,2.9,CN,23-07-18
354,kamina,-8.7386,24.9906,19.37,29,6,2.02,CD,23-07-18
355,chuzhou,32.3219,118.2978,24.74,95,100,2.18,CN,23-07-18
356,zhaotong,27.3167,103.7167,15.82,93,100,2.03,CN,23-07-18
357,mirny,62.5353,113.9611,12.42,59,100,2.04,RU,23-07-18
358,kachug,53.9606,105.8817,9.98,86,1,1.65,RU,23-07-18
359,la mira,18.035,-102.3266,32.89,54,100,4.23,MX,23-07-18
360,san jose del guaviare,2.5729,-72.6459,28.26,77,11,1.34,CO,23-07-18
361,zhangye,38.9342,100.4517,25.21,25,90,1.93,CN,23-07-18
362,bulanik,39.0929,42.2703,17.79,31,0,2.17,TR,23-07-18
363,solleftea,63.1667,17.2667,17.92,60,85,3.45,SE,23-07-18
364,saint-joseph,-21.3667,55.6167,21.21,77,20,6.51,RE,23-07-18
365,balakhta,55.38,91.6,12.88,78,9,1.99,RU,23-07-18
366,kargasok,59.0556,80.8572,15.0,78,18,1.92,RU,23-07-18
367,altamira,-3.2033,-52.2064,34.05,46,40,2.06,BR,23-07-18
368,ghat,24.9647,10.1728,34.07,9,0,5.24,LY,23-07-18
369,hithadhoo,-0.6,73.0833,27.57,74,52,1.64,MV,23-07-18
370,nha trang,12.25,109.1833,29.0,73,100,1.39,VN,23-07-18
371,hola,51.5377,23.1902,19.1,44,58,2.07,PL,23-07-18
372,chibougamau,49.9168,-74.3659,18.79,68,100,4.25,CA,23-07-18
373,hastings,50.8552,0.5729,19.09,23,9,3.45,GB,23-07-18
374,beidao,34.5686,105.8933,18.85,79,4,2.12,CN,23-07-18
375,lubango,-14.9172,13.4925,13.91,22,0,2.99,AO,23-07-18
376,polyarnyy,69.1989,33.4478,16.33,73,100,1.95,RU,23-07-18
377,bozeman,45.6796,-111.0386,23.56,36,0,2.06,US,23-07-18
378,pisco,-13.7,-76.2167,22.03,60,20,3.6,PE,23-07-18
379,dryden,49.7833,-92.7503,17.16,67,20,2.06,CA,23-07-18
380,taroa,8.7058,171.2275,27.92,80,100,3.86,MH,23-07-18
381,eydhafushi,5.1033,73.0708,28.23,78,100,4.68,MV,23-07-18
382,mount gambier,-37.8333,140.7667,3.35,91,100,2.16,AU,23-07-18
383,qui nhon,13.7667,109.2333,26.69,81,100,2.85,VN,23-07-18
384,gaoping,30.7758,106.1029,25.61,78,100,0.4,CN,23-07-18
385,fort mcmurray,56.7268,-111.381,23.73,53,0,2.57,CA,23-07-18
386,ramanuj ganj,23.8,83.7,26.56,79,100,1.38,IN,23-07-18
387,necochea,-38.5473,-58.7368,8.81,35,5,2.92,AR,23-07-18
388,krasnogorskoye,52.2953,86.1979,15.43,87,0,1.13,RU,23-07-18
389,beloyarskiy,63.7119,66.6722,17.64,68,9,1.47,RU,23-07-18
390,carqueiranne,43.0953,6.073,27.65,73,0,4.12,FR,23-07-18
391,qaqortoq,60.7167,-46.0333,10.65,84,100,2.62,GL,23-07-18
392,owo,7.1962,5.5868,23.15,96,80,2.5,NG,23-07-18
393,trincomalee,8.5711,81.2335,27.4,76,70,10.91,LK,23-07-18
394,kertih,4.5141,103.4483,27.01,89,100,1.03,MY,23-07-18
395,doma,8.3833,8.35,27.58,77,56,2.2,NG,23-07-18
396,grand falls-windsor,48.9332,-55.6649,30.84,67,71,5.11,CA,23-07-18
397,takoradi,4.8845,-1.7554,24.72,91,65,4.6,GH,23-07-18
398,kem',64.9555,34.5793,16.78,72,100,2.4,RU,23-07-18
399,mersing,2.4312,103.8405,24.95,94,40,3.09,MY,23-07-18
400,mujiayingzi,42.1167,118.7833,19.76,69,0,3.82,CN,23-07-18
401,nadym,65.5333,72.5167,17.82,56,8,4.68,RU,23-07-18
402,bikenibeu village,1.3673,173.1241,27.98,83,75,2.06,KI,23-07-18
403,miyako,39.6367,141.9525,21.42,97,100,1.45,JP,23-07-18
404,doganyol,38.3118,39.0382,22.81,18,0,1.8,TR,23-07-18
405,katsuura,35.1333,140.3,24.71,91,99,3.23,JP,23-07-18
406,castillos,-34.1667,-53.8333,10.54,60,44,4.12,UY,23-07-18
407,chinde,26.8418,88.0763,19.95,74,100,1.9,NP,23-07-18
408,merritt,50.1123,-120.7942,24.07,35,5,0.45,CA,23-07-18
409,kamaishi,39.2667,141.8833,21.7,98,100,2.69,JP,23-07-18
410,arrifes,37.7667,-25.7,20.14,73,20,2.57,PT,23-07-18
411,kavaratti,10.5669,72.642,28.25,80,100,8.16,IN,23-07-18
412,kyzyl,51.7,94.45,17.03,53,0,2.14,RU,23-07-18
413,merizo village,13.2658,144.6691,26.59,90,100,4.72,GU,23-07-18
414,zhuji,29.7188,120.2423,25.9,95,100,0.2,CN,23-07-18
415,lerwick,60.1545,-1.1494,13.0,77,100,7.66,GB,23-07-18
416,la mure,44.9026,5.7866,23.91,62,70,2.0,FR,23-07-18
417,santa cruz,-17.8,-63.1667,16.03,67,100,8.23,BO,23-07-18
418,sao joao da barra,-21.6403,-41.0511,25.05,81,44,7.5,BR,23-07-18
419,bambanglipuro,-7.95,110.2833,22.24,91,4,3.3,ID,23-07-18
420,kolokani,13.5728,-8.0339,32.38,41,17,3.03,ML,23-07-18
421,biryusinsk,55.9634,97.8235,11.61,79,5,1.41,RU,23-07-18
422,at taj,24.2049,23.2857,32.31,19,5,5.63,LY,23-07-18
423,magadan,59.5667,150.8,15.56,75,13,2.02,RU,23-07-18
424,davlekanovo,54.2215,55.0343,15.38,89,70,0.94,RU,23-07-18
425,nova sintra,14.8667,-24.7167,22.71,74,59,5.31,CV,23-07-18
426,cobija,-11.0267,-68.7692,30.1,66,75,2.57,BO,23-07-18
427,doba,8.65,16.85,26.81,69,100,1.36,TD,23-07-18
428,ascension,30.2169,-90.9001,34.74,61,40,2.06,US,23-07-18
429,bel ombre,-4.6167,55.4167,25.91,73,20,3.09,SC,23-07-18
430,sarangani,5.4033,125.4636,27.51,74,100,4.97,PH,23-07-18
431,fisterra,42.9049,-9.2629,22.08,80,0,8.6,ES,23-07-18
432,lata,40.1629,-8.3327,18.78,56,0,2.9,PT,23-07-18
433,buzuluk,52.7807,52.2635,15.58,93,2,2.76,RU,23-07-18
434,salalah,17.0151,54.0924,26.05,94,100,4.12,OM,23-07-18
435,sao pedro do sul,-29.6206,-54.1789,11.36,63,2,4.16,BR,23-07-18
436,magadi,12.9667,77.2333,22.09,77,100,7.59,IN,23-07-18
437,castro,-24.7911,-50.0119,12.76,98,100,2.89,BR,23-07-18
438,alaghsas,17.0187,8.0168,38.95,13,83,4.13,NE,23-07-18
439,mosjoen,65.836,13.1908,14.29,72,75,1.54,NO,23-07-18
440,haradok,55.4624,29.9816,13.14,92,75,4.6,BY,23-07-18
441,beyla,8.6833,-8.6333,22.04,94,95,0.41,GN,23-07-18
442,mbanza kongo,-6.267,14.2401,25.45,52,79,3.74,AO,23-07-18
443,asbury,42.5144,-90.7515,25.71,44,75,1.79,US,23-07-18
444,kharkhorin,47.1975,102.8238,12.2,98,100,0.53,MN,23-07-18
445,taoudenni,22.6783,-3.9836,40.74,16,86,7.29,ML,23-07-18
446,dunay,42.8803,132.3375,17.45,97,23,0.92,RU,23-07-18
447,kondopoga,62.2057,34.2614,15.82,71,100,1.46,RU,23-07-18
448,guatrache,-37.6678,-63.5302,10.87,47,100,7.43,AR,23-07-18
449,ovalle,-30.5983,-71.2003,27.63,13,16,1.72,CL,23-07-18
450,gowurdak,37.8124,66.0466,31.3,27,0,6.55,TM,23-07-18
451,samana,19.2056,-69.3369,33.12,75,40,5.14,DO,23-07-18
452,tual,-5.6667,132.75,26.4,80,13,9.0,ID,23-07-18
453,berber,18.0216,33.983,36.67,11,12,2.31,SD,23-07-18
454,bakanas,44.8081,76.2772,29.47,18,0,5.16,KZ,23-07-18
455,hasaki,35.7333,140.8333,24.22,81,100,2.26,JP,23-07-18
456,yaren,-0.5472,166.916,28.33,71,100,1.13,NR,23-07-18
457,onguday,50.75,86.15,14.39,88,0,1.1,RU,23-07-18
458,batu pahat,1.8548,102.9325,25.16,90,100,1.81,MY,23-07-18
459,manokwari,-0.8667,134.0833,26.34,80,16,1.77,ID,23-07-18
460,qarazhal,48.0078,70.7903,24.83,44,87,2.74,KZ,23-07-18
461,berezovyy,51.6667,135.7,18.99,50,32,1.89,RU,23-07-18
462,gargalianoi,37.0667,21.6333,26.34,59,0,1.44,GR,23-07-18
463,staritsa,56.5075,34.9354,14.65,98,100,6.54,RU,23-07-18
464,peace river,56.2501,-117.286,21.17,52,75,5.14,CA,23-07-18
465,tuban,-6.8976,112.0649,22.97,87,0,3.16,ID,23-07-18
466,saudarkrokur,65.7461,-19.6394,7.8,82,21,4.22,IS,23-07-18
467,laguna,38.421,-121.4238,30.61,38,0,4.12,US,23-07-18
468,messaad,34.1543,3.5031,35.05,11,6,4.33,DZ,23-07-18
469,fenyi,27.8112,114.6681,25.22,96,100,1.26,CN,23-07-18
470,magong,23.5654,119.5863,28.37,80,98,2.89,TW,23-07-18
471,forster,-32.1667,152.5167,12.41,68,3,6.11,AU,23-07-18
472,grigoropolisskaya,45.2972,41.0567,21.62,55,44,3.0,RU,23-07-18
473,ar ruways,24.1103,52.7306,31.93,65,6,1.2,AE,23-07-18
474,shenjiamen,29.9576,122.298,26.59,92,100,1.76,CN,23-07-18
475,salinas,36.6777,-121.6555,18.68,72,0,5.66,US,23-07-18
476,garbahaarrey,3.3289,42.2209,27.2,54,25,10.32,SO,23-07-18
477,an nuhud,12.7,28.4333,31.72,42,74,7.93,SD,23-07-18
478,sinop,41.7711,34.8709,15.96,67,76,1.84,TR,23-07-18
479,lobujya,27.95,86.8167,3.43,99,100,1.36,NP,23-07-18
480,punta del este,-34.9667,-54.95,9.49,70,75,4.12,UY,23-07-18
481,bellingham,48.7595,-122.4882,21.6,64,0,2.68,US,23-07-18
482,shingu,33.7333,135.9833,24.68,92,100,2.89,JP,23-07-18
483,utrik,11.2278,169.8474,27.84,83,68,6.27,MH,23-07-18
484,strathfieldsaye,-36.8,144.3667,1.25,53,10,2.26,AU,23-07-18
485,korla,41.7597,86.1469,27.13,34,2,7.19,CN,23-07-18
486,altdorf,49.3875,11.3572,25.02,61,9,0.73,DE,23-07-18
487,nikolayevsk-on-amure,53.1406,140.73,13.78,94,16,0.93,RU,23-07-18
488,igarka,67.4667,86.5833,11.96,82,99,3.55,RU,23-07-18
489,songyuan,45.1171,124.8568,19.48,91,1,2.71,CN,23-07-18
490,tangalle,6.024,80.7911,25.99,83,99,6.3,LK,23-07-18
491,guantanamo,20.1444,-75.2092,27.76,49,100,5.48,CU,23-07-18
492,mukalla,14.5425,49.1242,30.61,66,10,1.99,YE,23-07-18
493,kodinsk,58.6881,99.1844,12.05,62,7,0.55,RU,23-07-18
494,aur,8.1499,171.1687,28.0,81,100,3.28,MH,23-07-18
495,espinosa,-14.9261,-42.8192,31.47,19,4,3.42,BR,23-07-18
496,konarka,19.9,86.1167,27.22,84,68,5.2,IN,23-07-18
497,floro,61.5996,5.0328,12.98,71,75,10.29,NO,23-07-18
498,kunming,25.0389,102.7183,16.96,63,100,5.0,CN,23-07-18
499,pitangueiras,-21.0094,-48.2217,31.29,33,20,1.88,BR,23-07-18
500,mansa,29.9833,75.3833,30.04,72,48,5.0,IN,23-07-18
501,rongelap,11.1635,166.8941,28.21,79,80,5.69,MH,23-07-18
502,mandalgovi,45.7625,106.2708,16.81,75,100,7.32,MN,23-07-18
503,beledweyne,4.7358,45.2036,26.48,58,83,10.56,SO,23-07-18
504,ad dabbah,18.05,30.95,38.09,10,100,4.16,SD,23-07-18
505,yelan',50.949,43.7378,20.01,72,83,3.28,RU,23-07-18
506,tchintabaraden,15.8969,5.7985,39.67,16,92,2.77,NE,23-07-18
507,senanga,-16.1167,23.2667,15.64,33,0,0.77,ZM,23-07-18
508,hangu,39.2489,117.7892,28.02,55,0,3.38,CN,23-07-18
509,thurgoona,-36.0451,146.9919,3.14,100,94,0.89,AU,23-07-18
510,nejo,9.5,35.5,14.6,96,100,0.23,ET,23-07-18
511,dumfries,38.5676,-77.328,31.77,46,0,2.57,US,23-07-18
512,palikir - national government center,6.9248,158.1611,25.41,94,75,2.06,FM,23-07-18
513,la gi,10.6667,107.7833,25.32,92,70,4.28,VN,23-07-18
514,ilomantsi,62.6716,30.9328,14.17,83,93,1.74,FI,23-07-18
515,nantucket,41.2835,-70.0995,25.12,78,0,1.54,US,23-07-18
516,shulan,44.4167,126.95,17.1,94,0,1.74,CN,23-07-18
517,yerofey pavlovich,53.9667,121.9667,16.77,95,100,1.21,RU,23-07-18
518,flying fish cove,-10.4217,105.6791,24.82,83,75,6.69,CX,23-07-18
519,labrador city,52.9463,-66.9114,23.95,46,75,6.69,CA,23-07-18
520,sangueya,10.7,-14.3667,25.12,93,85,2.42,GN,23-07-18
521,katabu,-4.9333,122.5167,24.18,82,100,1.88,ID,23-07-18
522,alo,7.4178,6.7371,25.7,91,98,1.44,NG,23-07-18
523,keelung,25.1283,121.7419,26.72,83,100,1.66,TW,23-07-18
524,wau,7.7029,27.9953,21.34,94,66,2.84,SS,23-07-18
525,wanxian,30.8039,108.3897,25.8,78,100,0.76,CN,23-07-18
526,sant antoni de portmany,38.9807,1.3036,29.25,81,0,1.54,ES,23-07-18
527,dunyapur,29.7995,71.7196,38.07,37,11,2.07,PK,23-07-18
528,alofi,-19.0595,-169.9187,20.94,73,100,4.63,NU,23-07-18
529,sretensk,52.2453,117.7093,18.19,99,100,1.77,RU,23-07-18
530,luganville,-15.5333,167.1667,24.3,87,100,6.59,VU,23-07-18
531,mejit,10.2753,170.8646,27.91,82,19,6.25,MH,23-07-18
532,bandar-e lengeh,26.5579,54.8807,33.22,65,73,1.89,IR,23-07-18
533,conduaga,8.862,117.4893,25.43,82,100,3.26,PH,23-07-18
534,vilyuysk,63.7553,121.6247,7.53,90,38,1.93,RU,23-07-18
535,kristiansund,63.1115,7.732,13.36,58,75,5.66,NO,23-07-18
536,itanagar,27.1,93.6167,24.56,89,97,1.5,IN,23-07-18
537,pishin,30.5803,66.9961,29.5,32,5,2.8,PK,23-07-18
538,esmeralda,21.8525,-78.1169,31.2,66,60,5.25,CU,23-07-18
539,kuta,-8.7233,115.1723,25.97,78,40,5.66,ID,23-07-18
540,verdal,63.7933,11.4817,14.02,85,94,3.32,NO,23-07-18
541,broome,42.2506,-75.833,26.56,74,40,3.09,US,23-07-18
542,bosobolo,4.1833,19.9,22.16,97,100,0.73,CD,23-07-18
543,kirensk,57.7853,108.1119,10.72,89,10,0.88,RU,23-07-18
544,dolisie,-4.1997,12.6739,22.68,78,98,1.99,CG,23-07-18
545,kuanda,56.3161,116.0806,11.97,98,100,4.06,RU,23-07-18
546,yelizovo,53.1873,158.3805,12.08,100,0,1.0,RU,23-07-18
547,vrangel',42.7297,133.0839,17.1,97,26,1.31,RU,23-07-18
548,coquimbo,-29.9533,-71.3436,19.85,59,0,1.54,CL,23-07-18
549,toyooka,35.5333,134.8333,23.85,92,100,2.56,JP,23-07-18
550,faya-largeau,17.9257,19.1043,37.82,11,10,2.89,TD,23-07-18
551,bosaso,11.2842,49.1816,32.49,56,0,1.33,SO,23-07-18
552,alliance,40.9153,-81.1059,26.51,70,16,4.59,US,23-07-18
553,veraval,20.9,70.3667,27.74,87,100,8.35,IN,23-07-18
554,namtsy,62.7161,129.6658,12.99,92,99,4.87,RU,23-07-18
555,shchigry,51.8755,36.9043,17.9,88,69,5.39,RU,23-07-18
556,villa mercedes,-33.6757,-65.4578,15.42,36,9,4.3,AR,23-07-18
557,paragominas,-2.9667,-47.4833,34.06,36,22,1.96,BR,23-07-18
558,quellon,-43.1167,-73.6167,9.14,71,0,6.17,CL,23-07-18
559,cuamba,-14.8031,36.5372,18.19,53,1,1.27,MZ,23-07-18
560,lahad datu,5.0268,118.327,25.0,91,100,1.88,MY,23-07-18
561,dedovichi,57.5517,29.9502,13.95,88,100,4.46,RU,23-07-18
562,soio,-6.1349,12.3689,22.12,85,9,4.34,AO,23-07-18
563,bamyan,34.75,67.25,11.85,48,0,2.73,AF,23-07-18
564,es castell,39.8795,4.2854,29.38,89,0,3.09,ES,23-07-18
565,enriquillo,17.9,-71.2333,32.82,74,100,5.72,DO,23-07-18
566,fonte boa,-2.4959,-66.2662,29.99,65,99,0.41,BR,23-07-18
567,vernon,50.2581,-119.2691,25.19,35,0,1.54,CA,23-07-18
568,kerikeri,-35.2268,173.9474,6.62,93,14,0.45,NZ,23-07-18
569,nagqu,31.5,92.0,3.65,93,100,1.7,CN,23-07-18
570,caldwell,43.6629,-116.6874,28.97,26,0,3.6,US,23-07-18
571,san mauro torinese,45.1058,7.7545,28.59,58,40,2.06,IT,23-07-18
572,marsabit,2.3284,37.9899,21.38,44,2,8.84,KE,23-07-18
573,palmer,42.1584,-72.3287,27.01,80,100,2.57,US,23-07-18
574,kununurra,-15.7667,128.7333,23.99,41,100,3.6,AU,23-07-18
575,ebon,4.582,168.6964,28.05,80,100,5.87,MH,23-07-18
576,afif,23.9065,42.9172,34.69,10,92,2.63,SA,23-07-18
577,dingcheng,32.1272,115.0394,24.86,96,100,1.66,CN,23-07-18
578,porecatu,-22.7558,-51.3792,24.27,57,100,1.78,BR,23-07-18
579,maracaju,-21.6144,-55.1683,21.84,62,100,4.04,BR,23-07-18
580,caluula,11.9661,50.7569,30.68,58,0,2.33,SO,23-07-18
581,coari,-4.085,-63.1414,33.13,45,99,0.74,BR,23-07-18
582,opuwo,-18.0607,13.84,16.07,23,0,3.67,NA,23-07-18
